[
  {
    "id": 50,
    "name": "My Canh Restaurant",
    "icon": "Vegetarian",
    "lat": 32.9169266,
    "lng": -96.7010156,
    "imageUrl": "https://lh3.googleusercontent.com/gps-cs-s/AB5caB_QZhlxtfGJPBxoZMkTG5L296FlvADb9SX3Z8N-uW9Ix83HmCLlnnilLd9hpek18C7zsQCigWF3gSinz_tHmUr3D1v61SDGM0yVJHlZEsDKtmdAKDVgpjik2ZOfvYgFPDhORHPu-w=w429-h240-k-no",
    "priceRange": "$$",
    "dishes": [
      {
        "id": 1
      },
      {
        "id": 3
      }
    ],
    "reviews": []
  },
  {
    "id": 51,
    "name": "Whataburger",
    "icon": "Nuts",
    "lat": 32.9086395,
    "lng": -96.69982,
    "imageUrl": "https://lh3.googleusercontent.com/gps-cs-s/AB5caB_ZdopFdJgMORQeMbYnaSdnryiH7ESjnfeVNN8Pp0OaNeXoowoQN4Y6rUHpm-1q9V243yGrAFuIbcBDjtS3rNfd6SQfwHB3YrY_u9aKqTMufpgyNpLFVsFf5oKNRx62lXHglc3qxA=w426-h240-k-no",
    "priceRange": "$$",
    "dishes": [
      {
        "id": 2
      }
    ],
    "reviews": []
  },
  {
    "id": 52,
    "name": "Balsas Mexican Restaurant",
    "icon": "Sesame",
    "lat": 32.9101708,
    "lng": -96.6833805,
    "imageUrl": "https://lh3.googleusercontent.com/gps-cs-s/AB5caB8l8qI14OIw41U2SzjYC0yZ5wnkOVlZItfNcLePMqbQr4w3pM_ySBbYiMam_i6IDsw5IiadbIjbvSg3csGcBF586IrouIt0djY66R0gyRTm8Z_U4GP_RS3wsGIc-kprga4okoBi=w408-h305-k-no",
    "priceRange": "$$",
    "dishes": [
      {
        "id": 4
      }
    ],
    "reviews": []
  },
  {
    "id": 53,
    "name": "Long Time Ago",
    "icon": "Vegetarian",
    "lat": 32.956683,
    "lng": -96.7680311,
    "imageUrl": "https://lh3.googleusercontent.com/p/AF1QipPpPL6QIRujvP5dz4agkpFrQSM9c1ECzuQx_8AB=w408-h306-k-no",
    "priceRange": "$$",
    "dishes": [
      {
        "id": 5
      }
    ],
    "reviews": []
  },
  {
    "id": 54,
    "name": "Bubbleology",
    "icon": "Vegan",
    "lat": 32.9487880405355,
    "lng": -96.7310741175112,
    "imageUrl": "https://images.happycow.net/venues/1024/41/80/hcmp418056_2897088.jpeg",
    "priceRange": "$",
    "dishes": [
      {
        "id": 6
      }
    ],
    "reviews": []
  },
  {
    "id": 55,
    "name": "Reverie Bakeshop",
    "icon": "Gluten-free",
    "lat": 32.9617190260534,
    "lng": -96.7684525751812,
    "imageUrl": "https://images.happycow.net/venues/1024/42/01/hcmp42018_957013.jpeg",
    "priceRange": "$$",
    "dishes": [
      {
        "id": 7
      }
    ],
    "reviews": []
  },
  {
    "id": 56,
    "name": "Masala Wok",
    "icon": "Vegetarian",
    "lat": 32.9794583754298,
    "lng": -96.7649994040157,
    "imageUrl": "https://images.happycow.net/venues/1024/37/07/hcmp370702_2341785.jpeg",
    "priceRange": "$$",
    "dishes": [
      {
        "id": 8
      }
    ],
    "reviews": []
  },
  {
    "id": 57,
    "name": "World Party Pizza",
    "icon": "Vegan",
    "lat": 32.977918979354,
    "lng": -96.7673208193569,
    "imageUrl": "https://lh3.googleusercontent.com/p/AF1QipNJOxywn44gwjW8Tv9Xi3suZVWYWNfm5BMetR_s=w408-h408-k-no",
    "priceRange": "$$",
    "dishes": [
      {
        "id": 9
      }
    ],
    "reviews": []
  },
  {
    "id": 58,
    "name": "Qdoba",
    "icon": "Gluten-free",
    "lat": 32.9779429776921,
    "lng": -96.7674356481922,
    "imageUrl": "https://d1mvj2ulps5lli.cloudfront.net/venues/500/99/14/chain99_140_1535321521.jpeg",
    "priceRange": "$$",
    "dishes": [
      {
        "id": 10
      }
    ],
    "reviews": []
  },
  {
    "id": 59,
    "name": "Bella Flan",
    "icon": "Vegetarian",
    "lat": 32.9618824203429,
    "lng": -96.7507371632118,
    "imageUrl": "https://img1.wsimg.com/isteam/ip/30861139-5935-4e5f-8805-69bf3068af9f/blob-54440c6.png/:/cr=t:16.7%25,l:7.83%25,w:68.28%25,h:73.53%25/rs=w:1280,h:962",
    "priceRange": "$$",
    "dishes": [
      {
        "id": 11
      }
    ],
    "reviews": []
  },
  {
    "id": 60,
    "name": "Oceanic Thai Kitchen",
    "icon": "Vegetarian",
    "lat": 33.0192258976833,
    "lng": -96.7959398175081,
    "imageUrl": "https://images.happycow.net/venues/500/25/77/hcmp257738_1581316.jpeg",
    "priceRange": "$$",
    "dishes": [
      {
        "id": 12
      }
    ],
    "reviews": []
  },
  {
    "id": 61,
    "name": "SPIN Neapolitan Pizza",
    "icon": "Gluten-free",
    "lat": 32.9808909627625,
    "lng": -96.723740420384,
    "imageUrl": "https://images.happycow.net/venues/1024/97/12/hcmp97127_698995.jpeg",
    "priceRange": "$$",
    "dishes": [
      {
        "id": 13
      }
    ],
    "reviews": []
  },
  {
    "id": 62,
    "name": "Gopal Vegetarian Restaurant",
    "icon": "Vegetarian",
    "lat": 32.9497326921546,
    "lng": -96.7343497262983,
    "imageUrl": "https://images.happycow.net/venues/1024/28/25/hcmp28253_1062353.jpeg",
    "priceRange": "$$",
    "dishes": [
      {
        "id": 14
      }
    ],
    "reviews": []
  },
  {
    "id": 63,
    "name": "Madina Halal Grill",
    "icon": "Halal",
    "lat": 32.9490124426657,
    "lng": -96.7313241947448,
    "imageUrl": "https://lh3.googleusercontent.com/gps-cs-s/AB5caB_AfZyMgB7syhNp6yPLemWdvlqxuOrHJ7vRZ9pHQOwgVxKJjUk-7r3arrqI1gEfvPM3EoTW2maRo9aDyCEeJ4RQjAhGt8Ol4-ZVaTh5cPl2ez60wrm6v4AOb8qeH42SjSDbQbUj=w408-h544-k-no",
    "priceRange": "$$",
    "dishes": [
      {
        "id": 15
      }
    ],
    "reviews": []
  },
  {
    "id": 64,
    "name": "Cream & Crepes Cafe",
    "icon": "Vegan",
    "lat": 32.9497068867231,
    "lng": -96.7383594288688,
    "imageUrl": "https://images.happycow.net/venues/500/17/91/hcmp179167_1062387.jpeg",
    "priceRange": "$",
    "dishes": [
      {
        "id": 16
      }
    ],
    "reviews": []
  },
  {
    "id": 65,
    "name": "The Dream Cafe",
    "icon": "Lactose-free",
    "lat": 32.9542983405981,
    "lng": -96.737018324382,
    "imageUrl": "https://images.happycow.net/venues/500/44/93/hcmp449383_3276224.jpeg",
    "priceRange": "$$",
    "dishes": [
      {
        "id": 17
      }
    ],
    "reviews": []
  },
  {
    "id": 66,
    "name": "Cinnaholic",
    "icon": "Vegan",
    "lat": 32.9495370684726,
    "lng": -96.7384237760729,
    "imageUrl": "https://images.happycow.net/venues/500/82/23/hcmp82239_512702.jpeg",
    "priceRange": "$",
    "dishes": [
      {
        "id": 18
      }
    ],
    "reviews": []
  },
  {
    "id": 67,
    "name": "Masami",
    "icon": "Vegetarian",
    "lat": 32.9508609970343,
    "lng": -96.7386959126982,
    "imageUrl": "https://lh3.googleusercontent.com/p/AF1QipNyOvLLYTr3QBs9ew1jU8F2KLIlVlGpNaiAh15b=w408-h306-k-no",
    "priceRange": "$$",
    "dishes": [
      {
        "id": 19
      }
    ],
    "reviews": []
  },
  {
    "id": 68,
    "name": "Nuno's Tacos & Vegmex Grill",
    "icon": "Vegan",
    "lat": 32.9394256035742,
    "lng": -96.7681545221203,
    "imageUrl": "https://images.happycow.net/venues/500/17/47/hcmp174703_2499264.jpeg",
    "priceRange": "$$",
    "dishes": [
      {
        "id": 20
      }
    ],
    "reviews": []
  },
  {
    "id": 69,
    "name": "AJ's Hot Chicken",
    "icon": "Halal",
    "lat": 32.9779305324331,
    "lng": -96.737137279173,
    "imageUrl": "https://d1w7312wesee68.cloudfront.net/LQ0qirhiNjcbO7YZA_aDb2HnIo2tPJFnK3JYRaMOcYA/plain/s3://toasttab/menu_service/restaurants/3edffa63-aab7-4781-880a-4aeadb5a837c/MenuItem/3112f66d-0e8d-4721-91a8-1fa17a67f60d.jpg",
    "priceRange": "$$",
    "dishes": [
      {
        "id": 21
      }
    ],
    "reviews": []
  },
  {
    "id": 70,
    "name": "Frutazo Juice Bar & Fruteria",
    "icon": "Vegan",
    "lat": 32.9329760312375,
    "lng": -96.6995924892517,
    "imageUrl": "https://images.happycow.net/venues/500/24/79/hcmp247973_1605999.jpeg",
    "priceRange": "$$",
    "dishes": [],
    "reviews": [
      {
        "id": 1
      }
    ]
  },
  {
    "id": 71,
    "name": "D'Vegan",
    "icon": "Vegan",
    "lat": 32.9221290153962,
    "lng": -96.7194363739077,
    "imageUrl": "https://images.happycow.net/venues/500/28/07/hcmp28073_1384597.jpeg",
    "priceRange": "$",
    "dishes": [],
    "reviews": []
  },
  {
    "id": 72,
    "name": "Burning Rice",
    "icon": "Vegetarian",
    "lat": 33.0565760391296,
    "lng": -96.7897917323052,
    "imageUrl": "https://images.happycow.net/venues/500/32/12/hcmp321262_2274612.jpeg",
    "priceRange": "$$",
    "dishes": [],
    "reviews": []
  },
  {
    "id": 73,
    "name": "Halal Fusionz",
    "icon": "Halal",
    "lat": 32.9578247548166,
    "lng": -96.837858539707,
    "imageUrl": "https://lh3.googleusercontent.com/p/AF1QipM_JDeonDkZ49OdrmbWZMdtESy2UUxJ8vkli9Y1=w408-h268-k-no",
    "priceRange": "$$",
    "dishes": [],
    "reviews": []
  },
  {
    "id": 74,
    "name": "Yummy Deli",
    "icon": "Halal",
    "lat": 32.9739553280044,
    "lng": -96.7321151313934,
    "imageUrl": "https://lh3.googleusercontent.com/proxy/YDgz9toSyZt6E8X1DMrgUSWEM6r9JKR1qCPtutw5SQ1Yf_sOiXvLARfjJyzBMcdzCfJ5EZ348qY_saqO_hoL8vPDG4GuslCmoV7o0dhWnGqL8RAB_QKKxaODmtm5qFecxT0s0OHGS-rHFiFH0xytM7xnxn3J62Q=s1360-w1360-h1020-rw",
    "priceRange": "$$",
    "dishes": [],
    "reviews": []
  },
  {
    "id": 75,
    "name": "Wava Halal Grill",
    "icon": "Halal",
    "lat": 32.9774114961905,
    "lng": -96.7540877876664,
    "imageUrl": "https://lh3.googleusercontent.com/p/AF1QipNpVkPR5lUf6l-Bem25DACk1F3ywbULvYAis0g6=s1360-w1360-h1020-rw",
    "priceRange": "$$",
    "dishes": [],
    "reviews": []
  },
  {
    "id": 76,
    "name": "Midtown Kosher Pizza",
    "icon": "Kosher",
    "lat": 32.9398372042325,
    "lng": -96.8078328487675,
    "imageUrl": "https://lh3.googleusercontent.com/p/AF1QipMo_eQPzrjGgws1ZmJMYL4EM7la6YkKKgGHjhA6=s1360-w1360-h1020",
    "priceRange": "$$",
    "dishes": [],
    "reviews": []
  },
  {
    "id": 77,
    "name": "Benny's Bagels",
    "icon": "Kosher",
    "lat": 33.0057945486658,
    "lng": -96.7813969966891,
    "imageUrl": "https://lh3.googleusercontent.com/gps-cs-s/AB5caB9j84mW9lJctt77sDm_0b7V8GJPHMQ6MDbRLTkslGGIP3DTyATDQNElq_FxVdgXLZZrRSTVnNaZ6_UKp42H5E0eLZD2N55xp4ojsC3chu2iqzz250smyzijYtWOD6b_6SaR_4zLig=s1360-w1360-h1020",
    "priceRange": "$$",
    "dishes": [],
    "reviews": []
  },
  {
    "id": 78,
    "name": "Meat Point",
    "icon": "Kosher",
    "lat": 32.9859261235592,
    "lng": -96.7862035152488,
    "imageUrl": "https://lh3.googleusercontent.com/p/AF1QipNi6Dm7khS0-veijrxk_QHdzevcML2ehg4l7ZPU=s1360-w1360-h1020-rw",
    "priceRange": "$$$",
    "dishes": [],
    "reviews": []
  },
  {
    "id": 79,
    "name": "Aderet",
    "icon": "Kosher",
    "lat": 32.9395490728949,
    "lng": -96.8037129757163,
    "imageUrl": "https://lh3.googleusercontent.com/p/AF1QipPXNpE7Xnysm1V1bm6Z3J4bBgdtkSLoHa9YduqO=s1360-w1360-h1020-rw",
    "priceRange": "$$$",
    "dishes": [],
    "reviews": []
  },
  {
    "id": 80,
    "name": "Snap Kitchen",
    "icon": "Gluten-free",
    "lat": 32.8442266273147,
    "lng": -96.7642463162414,
    "imageUrl": "https://tb-static.uber.com/prod/image-proc/processed_images/0049c4d0f5895541dcfec3675ae882eb/3ac2b39ad528f8c8c5dc77c59abb683d.jpeg",
    "priceRange": "$$",
    "dishes": [],
    "reviews": []
  },
  {
    "id": 81,
    "name": "Nori Handroll Bar & Sushi",
    "icon": "Gluten-free",
    "lat": 32.7851694289994,
    "lng": -96.7831108325411,
    "imageUrl": "https://norihandrollbar.com/_next/image?url=%2Fcarousel%2Fdragon.jpg&w=1080&q=75",
    "priceRange": "$$$",
    "dishes": [],
    "reviews": []
  },
  {
    "id": 82,
    "name": "Musume",
    "icon": "Gluten-free",
    "lat": 32.7899677840972,
    "lng": -96.7979878063618,
    "imageUrl": "https://popmenucloud.com/cdn-cgi/image/width=1920,height=1920,format=auto,fit=scale-down/rjhdaknx/4082ac23-5c32-4431-8179-fb61bdc50bbf.jpg",
    "priceRange": "$$$",
    "dishes": [],
    "reviews": []
  },
  {
    "id": 83,
    "name": "Urban Seafood Company",
    "icon": "Pescatarian",
    "lat": 33.0180993115967,
    "lng": -96.6986428027412,
    "imageUrl": "https://lh3.googleusercontent.com/proxy/Xb3eqjGTO4Hx2fOI9Wyn70-BRVKi1IJd4y-my4f_xA7nA7LNvjt-w15jX8fgH9BZc-fE8OuiM9Y5e8nRFoxTBQtQtgqy16jegLEAq8wGVa_4SgKL2B0-4kT71E0nwm1OXTXC2RiJm7Jq6N-x61zatDcoYDvFtw=s1360-w1360-h1020",
    "priceRange": "$$",
    "dishes": [],
    "reviews": []
  },
  {
    "id": 84,
    "name": "Truluck's Ocean's Finest Seafood and Crab",
    "icon": "Pescatarian",
    "lat": 33.075558871014,
    "lng": -96.8216245490737,
    "imageUrl": "https://lh3.googleusercontent.com/gps-cs-s/AB5caB-OIlIShVDhLoVpx0OXzQXrq5RIzNGLrlIycL-RaktMwQn4-dkIEcsdcAEaBP-60lnfKyWc4F8Mt33h5t3JhcYQAlePrtrF4y_FktGGDC7T3m8L-zkES0CTScssZUg6Im7WbfvBfPTmvwYi=s1360-w1360-h1020",
    "priceRange": "$$$",
    "dishes": [],
    "reviews": []
  },
  {
    "id": 85,
    "name": "Eddie V's Prime Seafood",
    "icon": "Pescatarian",
    "lat": 33.1426542075372,
    "lng": -96.8262110643979,
    "imageUrl": "https://lh3.googleusercontent.com/p/AF1QipPfg5L7UN6NHg1G_3c8ydOdXI8H9iu5CSKlJMBW=w390-h262-n-k-no",
    "priceRange": "$$$",
    "dishes": [],
    "reviews": []
  },
  {
    "id": 86,
    "name": "Mi Cocina",
    "icon": "Soy",
    "lat": 32.9789318021346,
    "lng": -96.7666886932541,
    "imageUrl": "https://s3-media0.fl.yelpcdn.com/bphoto/1SyOusonWHF-9QIo86i3Sw/l.jpg",
    "priceRange": "$$",
    "dishes": [],
    "reviews": []
  },
  {
    "id": 87,
    "name": "Flower Child",
    "icon": "Soy",
    "lat": 33.0290197237013,
    "lng": -96.7960028180853,
    "imageUrl": "https://www.iamaflowerchild.com/wp-content/themes/frc/static/images/tl-Desktop_Mobile_538x570_2022_TAR_v1.jpg",
    "priceRange": "$$",
    "dishes": [],
    "reviews": []
  },
  {
    "id": 88,
    "name": "Nature's Plate",
    "icon": "Soy",
    "lat": 32.8655389877923,
    "lng": -96.7088738708682,
    "imageUrl": "https://s3-media0.fl.yelpcdn.com/bphoto/69fvI9NzTrXlc1DJJHZvSA/348s.jpg",
    "priceRange": "$",
    "dishes": [],
    "reviews": []
  }
]